stop_id,stop_name,stop_lat,stop_lon
EW9,Aljunied,1.3164515,103.8829087
EW10,Kallang,1.3114481,103.8713388
NS15,Yio Chu Kang,1.3817905,103.8449359
EW8;CC9,Paya Lebar,1.3180497,103.8923182
EW2,Tampines,1.3533737,103.9450844
EW4,Tanah Merah,1.3272541,103.9465046
EW5,Bedok,1.3239765,103.930216
CG2,Changi Airport,1.3573382,103.9885647
CG1;DT35,Expo,1.3352594,103.9620127
EW11,Lavender,1.3074447,103.8630305
EW12;DT14,Bugis,1.3005303,103.8560949
EW17,Tiong Bahru,1.2860952,103.8276424
EW18,Redhill,1.2896482,103.8167677
EW19,Queenstown,1.2946235,103.8060454
EW20,Commonwealth,1.3024428,103.7983085
EW21;CC22,Buona Vista,1.3071902,103.7908483
EW22,Dover,1.3114214,103.7786275
EW23,Clementi,1.3151003,103.7652311
NS1;EW24;JE5,Jurong East,1.333115,103.7422968
EW25,Chinese Garden,1.3423978,103.732544
EW26,Lakeside,1.3442605,103.7207503
EW14;NS26,Raffles Place,1.2843955,103.8514973
NS24;NE6;CC1,Dhoby Ghaut,1.2987212,103.8450244
NE16;STC,Sengkang,1.3913304,103.8952941
NE15,Buangkok,1.3830565,103.89305
NE14;CR8,Hougang,1.3719039,103.8927535
NE13,Kovan,1.3599769,103.8848743
NE17;PTC,Punggol,1.4052551,103.9023538
NE10,Potong Pasir,1.3312544,103.8690932
NE12;CC13,Serangoon,1.35049831450162,103.87324486521683
NE9,Boon Keng,1.3198244,103.8615207
NE8,Farrer Park,1.3127545,103.8543738
NE7;DT12,Little India,1.3065714,103.8492986
NE4,Chinatown,1.2850195,103.8440033
NE1;CC29,HarbourFront,1.2653951,103.8224032
EW27;JS8,Boon Lay,1.3385752,103.7058478
EW28,Pioneer,1.3375884,103.6974104
EW29,Joo Koon,1.327735,103.6782221
CC12,Bartley,1.3424382,103.8804493
CC6,Stadium,1.3028989,103.8754768
CC2,Bras Basah,1.2968963,103.8505497
CC3,Esplanade,1.293258,103.8559742
CC4;DT15,Promenade,1.2927806,103.8610839
CC5,Nicoll Highway,1.2996713,103.8635001
CC7,Mountbatten,1.3062494,103.8824959
CC8,Dakota,1.3083182,103.8883362
CC10;DT26,MacPherson,1.3265672,103.8903059
CC11,Tai Seng,1.334874,103.8881723
CC28,Telok Blangah,1.2705858,103.8098632
CC27,Labrador Park,1.2723277,103.8027822
CC26,Pasir Panjang,1.276177,103.7916138
CC25,Haw Par Villa,1.2826539,103.7817717
CC24,Kent Ridge,1.2933012,103.7844127
CC23,one-north,1.2996073,103.7872407
CC21,Holland Village,1.3121508,103.795744
CC20,Farrer Road,1.3176276,103.8077853
CC17;TE9,Caldecott,1.3376796,103.8399908
DT13,Rochor,1.3039839,103.8526118
EW30,Gul Circle,1.319446944,103.6608911
EW31,Tuas Crescent,1.3211099,103.6489788
EW32,Tuas West Road,1.3300062,103.6396096
EW33,Tuas Link,1.3397375,103.6365746
EW6,Kembangan,1.3210321,103.9129269
CE1;DT16,Bayfront,1.2825724,103.8597242
EW3,Simei,1.3431881,103.953371
NS16;CR11,Ang Mo Kio,1.3700733,103.8495157
NS17;CC15,Bishan,1.3514551,103.8482628
NS2,Bukit Batok,1.3490572,103.7495906
NE3;EW16;TE17,Outram Park,1.2806848,103.8402413
DT1;BP6,Bukit Panjang,1.378629,103.7621358
NS21;DT11,Newton,1.3129596,103.8388638
NS10,Admiralty,1.4406369,103.8009592
DT5,Beauty World,1.3416523,103.775935
DT29,Bedok North,1.3350342184363,103.91851751540032
DT30,Bedok Reservoir,1.3364823,103.931918
DT21,Bencoolen,1.2987243,103.8501858
DT23,Bendemeer,1.3135751,103.862645
NS18,Braddell,1.3406003,103.8467704
NS3,Bukit Gombak,1.3588929,103.7518249
EW13;NS25,City Hall,1.2931061,103.8526871
NE5,Clarke Quay,1.2889806,103.8468686
DT17,Downtown,1.2791912,103.8533448
DT20,Fort Canning,1.2922396,103.8441627
DT24,Geylang Bahru,1.3215932,103.8720146
DT22,Jalan Besar,1.3043525,103.8547059
DT28,Kaki Bukit,1.3349944,103.9086571
DT6,King Albert Park,1.3359339,103.7834787
NS7,Kranji,1.4252189,103.7619891
CC14,Lorong Chuan,1.3514878,103.8633948
NS8,Marsiling,1.4325704,103.7741243
DT25,Mattar,1.3266737,103.8835162
NS20,Novena,1.3200842,103.8434924
NS22;TE14,Orchard,1.3031958,103.8320595
EW1;CR5,Pasir Ris,1.3730307,103.949255
NS11,Sembawang,1.4490928,103.8200555
DT7,Sixth Avenue,1.3305875,103.7972287
NS23,Somerset,1.3002901,103.838501
DT10;TE11,Stevens,1.3202201,103.8254214
DT33,Tampines East,1.3560253,103.955001
DT31,Tampines West,1.3455199,103.9385581
DT8,Tan Kah Kee,1.3259616,103.8070218
EW15,Tanjong Pagar,1.2765707,103.845848
DT18,Telok Ayer,1.2821231,103.848744
NS19,Toa Payoh,1.3322966,103.8473272
DT27,Ubi,1.3300095,103.8993573
DT34,Upper Changi,1.3417562,103.9612611
NS9;TE2,Woodlands,1.4373881,103.787675
NS5,Yew Tee,1.3974608,103.7474009
NS13,Yishun,1.4293839,103.8350282
NE11,Woodleigh,1.3391966,103.8707535
CC16,Marymount (CCL),1.3479014,103.8399968
NS4;BP1,Choa Chu Kang,1.3853167,103.744325
EW7,Eunos,1.3198016,103.9028891
CC19;DT9,Botanic Gardens,1.322585,103.8157246
NS14,Khatib,1.4173597,103.8330179
NS27;CE2;TE20,Marina Bay,1.2756818,103.8546165
NS28,Marina South Pier,1.27127698470973,103.86297693157816
DT3,Hillview,1.3623476,103.7671612
DT2,Cashew,1.3697501,103.7645133
TE1,Woodlands North,1.4472293,103.7865072
TE3,Woodlands South,1.4268726,103.7949831
TE4,Springleaf,1.3982444,103.818058
TE5,Lentor,1.3848853,103.8365739
TE6,Mayflower,1.372236,103.8367954
TE7,Bright Hill,1.363327,103.8331509
TE8,Upper Thomson,1.3545558,103.832573
TE10,Mount Pleasant,1.3281992,103.8355847
TE12,Napier,1.3068055,103.8188261
TE13,Orchard Boulevard,1.3025452,103.8239132
TE15,Great World,1.2947956,103.8336156
TE16,Havelock,1.288437,103.8336598
TE18,Maxwell,1.2803822,103.8435616
TE19,Shenton Way,1.277836,103.8505274
TE21,Marina South,1.2740007,103.8631737
TE22,Gardens by the Bay,1.279054,103.8681736
TE22A,Founders' Memorial,1.2912664,103.8689277
TE23,Tanjong Rhu,1.2972029,103.8735306
TE24,Katong Park,1.2978644,103.8864143
TE25,Tanjong Katong,1.2992286,103.8973712
TE26,Marine Parade,1.3030169,103.9057229
TE27,Marine Terrace,1.3069297,103.9157452
TE28,Siglap,1.3100971,103.9305475
TE29,Bayshore,1.3130594,103.9413525
TE30,Bedok South,1.3170871,103.9499069
DT37;TE31,Sungei Bedok,1.3205526,103.9571714
SE1,Compassvale,1.39451797669085,103.90043487942478
SE2,Rumbia,1.391509460184778,103.9059368444869
SE3,Bakau,1.388029042530036,103.90545815399668
SE4,Kangkar,1.383921574698888,103.90220144933765
SE5,Ranggung,1.384030036525956,103.8973485788573
SW1,Cheng Lim,1.396309776132256,103.89371259307967
SW2,Farmway,1.397190797974815,103.88916658407446
SW3,Kupang,1.398203750973323,103.88124593703259
SW4,Thanggam,1.397433621709752,103.87564456259884
SW5,Fernvale,1.391916485402874,103.87629684230374
SW6,Layar,1.392113795403588,103.88007347641667
SW7,Tongkang,1.38944524889024,103.88580686582543
SW8,Renjong,1.386708054589889,103.89048463834847
PE1,Cove,1.399464221572572,103.90585218726488
PE2,Meridian,1.396976137434535,103.9088743662731
PE3,Coral Edge,1.393875419993549,103.91264261848282
PE4,Riviera,1.394549157370648,103.91610434449348
PE5,Kadaloor,1.399600930413328,103.91644473358139
PE6,Oasis,1.4023165832225,103.9126842765416
PE7,Damai,1.4052818,103.9085559
PW1,Sam Kee,1.409720988847937,103.90489279462764
PW3,Punggol Point,1.416881397271965,103.90662977642228
PW4,Samudera,1.415953688228711,103.90213975853027
PW5,Nibong,1.41183138442895,103.90030487610659
PW6,Sumang,1.408532183520833,103.8985341990612
PW7,Soo Teck,1.405393831334607,103.89723642899281
BP2,South View,1.380260024116552,103.74528492967367
BP3,Keat Hong,1.378603340954328,103.74902066009912
BP4,Teck Whye,1.376670474082516,103.75364705155573
BP5,Phoenix,1.378616332904244,103.75800798813884
BP7,Petir,1.377755595267359,103.76663388851375
BP8,Pending,1.376184072241358,103.77125868740876
BP9,Bangkit,1.380055338041075,103.77264429982239
BP10,Fajar,1.384550217436896,103.7708002811242
BP11,Segar,1.387791834670224,103.76959311942915
BP12,Jelapang,1.386683160337469,103.7645152786676
BP13,Senja,1.382677784086979,103.76238216812897
BP14,Ten Mile Junction,1.380224568666137,103.76049716192425